{"id":2,"data":{"typeIntern":["no_type"],"vertexAggSimValue":-1,"ccId":2,"lon":13.7383,"hashCc":-3518123016259760317,"label":"Dresden (Germany)","url":"http:\/\/data.nytimes.com\/58762017005387283901","ontology":"http:\/\/data.nytimes.com\/","lat":51.0509}}
{"id":3775,"data":{"typeIntern":["Settlement"],"vertexAggSimValue":-1,"ccId":2,"lon":13.7333,"hashCc":-3518123016259760317,"label":"Dresden","url":"http:\/\/dbpedia.org\/resource\/Dresden","ontology":"http:\/\/dbpedia.org\/","lat":51.0333}}
{"id":6,"data":{"typeIntern":["no_type"],"vertexAggSimValue":-1,"ccId":6,"lon":14.4241,"hashCc":-1422222913103424106,"label":"Prague (Czech Republic)","url":"http:\/\/data.nytimes.com\/N32788936541921050931","ontology":"http:\/\/data.nytimes.com\/","lat":50.0878}}
{"id":6285,"data":{"typeIntern":["Settlement","AdministrativeRegion","Park"],"vertexAggSimValue":-1,"ccId":6,"lon":14.4167,"hashCc":-1422222913103424106,"label":"prague","url":"http:\/\/rdf.freebase.com\/ns\/en.prague","ontology":"http:\/\/rdf.freebase.com\/","lat":50.0833}}
{"id":7,"data":{"typeIntern":["Settlement"],"vertexAggSimValue":-1,"ccId":6,"lon":14.4208,"hashCc":-1422222913103424106,"label":"Prague","url":"http:\/\/sws.geonames.org\/3067696\/","ontology":"http:\/\/sws.geonames.org\/","lat":50.088}}
{"id":6745,"data":{"typeIntern":["Settlement"],"vertexAggSimValue":-1,"ccId":6,"lon":14.4167,"hashCc":-1422222913103424106,"label":"Prague","url":"http:\/\/dbpedia.org\/resource\/Prague","ontology":"http:\/\/dbpedia.org\/","lat":50.0833}}
{"id":13,"data":{"typeIntern":["Settlement"],"vertexAggSimValue":-1,"ccId":12,"lon":2.82493,"hashCc":-6282440934609483585,"label":"Girona","url":"http:\/\/sws.geonames.org\/3121456\/","ontology":"http:\/\/sws.geonames.org\/","lat":41.9831}}
{"id":12,"data":{"typeIntern":["no_type"],"vertexAggSimValue":-1,"ccId":12,"lon":2.82493,"hashCc":-6282440934609483585,"label":"Girona (Spain)","url":"http:\/\/data.nytimes.com\/48062787877223425821","ontology":"http:\/\/data.nytimes.com\/","lat":41.9831}}
{"id":18,"data":{"typeIntern":["no_type"],"vertexAggSimValue":-1,"ccId":18,"lon":-113.769,"hashCc":-6253347547803879294,"label":"Grand Canyon (Ariz)","url":"http:\/\/data.nytimes.com\/51568144030459767861","ontology":"http:\/\/data.nytimes.com\/","lat":35.9739}}
{"id":19,"data":{"typeIntern":["no_type"],"vertexAggSimValue":-1,"ccId":18,"lon":-113.769,"hashCc":-6253347547803879294,"label":"Grand Canyon","url":"http:\/\/sws.geonames.org\/6619202\/","ontology":"http:\/\/sws.geonames.org\/","lat":35.9739}}
{"id":4693,"data":{"typeIntern":["Country"],"vertexAggSimValue":-1,"ccId":20,"lon":-80.6667,"hashCc":8110710252270166454,"label":"Cayman Islands","url":"http:\/\/sws.geonames.org\/3580718\/","ontology":"http:\/\/sws.geonames.org\/","lat":19.5}}
{"id":20,"data":{"typeIntern":["no_type"],"vertexAggSimValue":-1,"ccId":20,"lon":-80.6667,"hashCc":8110710252270166454,"label":"Cayman Islands","url":"http:\/\/data.nytimes.com\/40088375551498810941","ontology":"http:\/\/data.nytimes.com\/","lat":19.5}}
{"id":21,"data":{"typeIntern":["AdministrativeRegion","Country"],"vertexAggSimValue":-1,"ccId":20,"lon":100.308,"hashCc":8110710252270166454,"label":"cayman islands","url":"http:\/\/rdf.freebase.com\/ns\/en.cayman_islands","ontology":"http:\/\/rdf.freebase.com\/","lat":5.35528}}
{"id":30,"data":{"typeIntern":["no_type"],"vertexAggSimValue":-1,"ccId":30,"lon":37.6156,"hashCc":4182463793462885945,"label":"Moscow (Russia)","url":"http:\/\/data.nytimes.com\/N38458012876881079341","ontology":"http:\/\/data.nytimes.com\/","lat":55.7522}}
{"id":31,"data":{"typeIntern":["Settlement"],"vertexAggSimValue":-1,"ccId":30,"lon":37.6156,"hashCc":4182463793462885945,"label":"Moscow","url":"http:\/\/sws.geonames.org\/524901\/","ontology":"http:\/\/sws.geonames.org\/","lat":55.7522}}
{"id":7148,"data":{"typeIntern":["AdministrativeRegion"],"vertexAggSimValue":-1,"ccId":30,"lon":37.6178,"hashCc":4182463793462885945,"label":"Moscow","url":"http:\/\/dbpedia.org\/resource\/Moscow","ontology":"http:\/\/dbpedia.org\/","lat":55.7517}}
{"id":35,"data":{"typeIntern":["Settlement","AdministrativeRegion"],"vertexAggSimValue":-1,"ccId":34,"lon":-70.0333,"hashCc":2864342289526253858,"label":"wellfleet","url":"http:\/\/rdf.freebase.com\/ns\/en.wellfleet","ontology":"http:\/\/rdf.freebase.com\/","lat":41.9375}}
{"id":34,"data":{"typeIntern":["no_type"],"vertexAggSimValue":-1,"ccId":34,"lon":-70.0328,"hashCc":2864342289526253858,"label":"Wellfleet (Mass)","url":"http:\/\/data.nytimes.com\/52555118289659555091","ontology":"http:\/\/data.nytimes.com\/","lat":41.9376}}
{"id":1848,"data":{"typeIntern":["Settlement"],"vertexAggSimValue":-1,"ccId":34,"lon":-70.0328,"hashCc":2864342289526253858,"label":"Wellfleet","url":"http:\/\/sws.geonames.org\/4954763\/","ontology":"http:\/\/sws.geonames.org\/","lat":41.9376}}
{"id":5050,"data":{"typeIntern":["Settlement"],"vertexAggSimValue":-1,"ccId":36,"lon":-73.9671,"hashCc":5399217555580622878,"label":"Fort Greene","url":"http:\/\/sws.geonames.org\/5117661\/","ontology":"http:\/\/sws.geonames.org\/","lat":40.6937}}
{"id":36,"data":{"typeIntern":["no_type"],"vertexAggSimValue":-1,"ccId":36,"lon":-73.9671,"hashCc":5399217555580622878,"label":"Fort Greene (NYC)","url":"http:\/\/data.nytimes.com\/18930129245075267651","ontology":"http:\/\/data.nytimes.com\/","lat":40.6937}}
{"id":38,"data":{"typeIntern":["no_type"],"vertexAggSimValue":-1,"ccId":38,"lon":18.85,"hashCc":4697865828674512139,"label":"Stellenbosch (South Africa)","url":"http:\/\/data.nytimes.com\/N53098147209294935951","ontology":"http:\/\/data.nytimes.com\/","lat":-33.9333}}
{"id":40,"data":{"typeIntern":["no_type"],"vertexAggSimValue":-1,"ccId":40,"hashCc":-6880100430757945766,"label":"Ranthambhore National Park (India)","url":"http:\/\/data.nytimes.com\/N17611740861942540891","ontology":"http:\/\/data.nytimes.com\/"}}
{"id":2934,"data":{"typeIntern":["Settlement"],"vertexAggSimValue":-1,"ccId":42,"lon":9.83333,"hashCc":-5963284566529132770,"label":"St. Moritz","url":"http:\/\/sws.geonames.org\/2658813\/","ontology":"http:\/\/sws.geonames.org\/","lat":46.5}}
{"id":913,"data":{"typeIntern":["Settlement","AdministrativeRegion"],"vertexAggSimValue":-1,"ccId":42,"lon":9.833333,"hashCc":-5963284566529132770,"label":"st moritz","url":"http:\/\/rdf.freebase.com\/ns\/en.st_moritz","ontology":"http:\/\/rdf.freebase.com\/","lat":46.5,"ele":1822}}
{"id":42,"data":{"typeIntern":["no_type"],"vertexAggSimValue":-1,"ccId":42,"lon":9.83333,"hashCc":-5963284566529132770,"label":"St Moritz (Switzerland)","url":"http:\/\/data.nytimes.com\/N50723356178133827811","ontology":"http:\/\/data.nytimes.com\/","lat":46.5}}
{"id":44,"data":{"typeIntern":["no_type"],"vertexAggSimValue":-1,"ccId":44,"lon":-73.5029,"hashCc":6187287184221473915,"label":"Jones Beach (NY)","url":"http:\/\/data.nytimes.com\/37317147952269874571","ontology":"http:\/\/data.nytimes.com\/","lat":40.5945}}
{"id":46,"data":{"typeIntern":["no_type"],"vertexAggSimValue":-1,"ccId":46,"lon":-73.9921,"hashCc":1154910261574521501,"label":"Bear Mountain State Park (NY)","url":"http:\/\/data.nytimes.com\/65149397327002847791","ontology":"http:\/\/data.nytimes.com\/","lat":41.2968}}
{"id":6159,"data":{"typeIntern":["Park"],"vertexAggSimValue":-1,"ccId":46,"lon":-74.0058,"hashCc":1154910261574521501,"label":"Bear Mountain State Park","url":"http:\/\/dbpedia.org\/resource\/Bear_Mountain_State_Park","ontology":"http:\/\/dbpedia.org\/","lat":41.3128}}
{"id":2488,"data":{"typeIntern":["Country"],"vertexAggSimValue":-1,"ccId":48,"lon":105.85,"hashCc":3188511705026871911,"label":"Vietnam","url":"http:\/\/dbpedia.org\/resource\/Vietnam","ontology":"http:\/\/dbpedia.org\/","lat":21.0333}}
{"id":48,"data":{"typeIntern":["no_type"],"vertexAggSimValue":-1,"ccId":48,"lon":107.833,"hashCc":3188511705026871911,"label":"Vietnam","url":"http:\/\/data.nytimes.com\/58129886786977962561","ontology":"http:\/\/data.nytimes.com\/","lat":16.1667}}
{"id":50,"data":{"typeIntern":["no_type"],"vertexAggSimValue":-1,"ccId":50,"lon":76.3167,"hashCc":-7218633803258861181,"label":"Dharamsala (India)","url":"http:\/\/data.nytimes.com\/N16707085729413360761","ontology":"http:\/\/data.nytimes.com\/","lat":32.2167}}
{"id":2069,"data":{"typeIntern":["Settlement"],"vertexAggSimValue":-1,"ccId":50,"lon":76.3167,"hashCc":-7218633803258861181,"label":"Dharamsala","url":"http:\/\/sws.geonames.org\/1272832\/","ontology":"http:\/\/sws.geonames.org\/","lat":32.2167}}
{"id":53,"data":{"typeIntern":["Settlement","AdministrativeRegion"],"vertexAggSimValue":-1,"ccId":52,"lon":7.9167,"hashCc":-5958670891092699147,"label":"wengen","url":"http:\/\/rdf.freebase.com\/ns\/en.wengen","ontology":"http:\/\/rdf.freebase.com\/","lat":46.6}}
{"id":52,"data":{"typeIntern":["no_type"],"vertexAggSimValue":-1,"ccId":52,"lon":7.91667,"hashCc":-5958670891092699147,"label":"Wengen (Switzerland)","url":"http:\/\/data.nytimes.com\/78542399405966564041","ontology":"http:\/\/data.nytimes.com\/","lat":46.6}}
{"id":7382,"data":{"typeIntern":["BodyOfWater"],"vertexAggSimValue":-1,"ccId":54,"lon":-84.4375,"hashCc":-1666151260480938912,"label":"Great Lakes","url":"http:\/\/sws.geonames.org\/4994594\/","ontology":"http:\/\/sws.geonames.org\/","lat":45.6875}}
{"id":54,"data":{"typeIntern":["no_type"],"vertexAggSimValue":-1,"ccId":54,"lon":-84.4375,"hashCc":-1666151260480938912,"label":"Great Lakes","url":"http:\/\/data.nytimes.com\/N37956102740158526451","ontology":"http:\/\/data.nytimes.com\/","lat":45.6875}}
{"id":73,"data":{"typeIntern":["AdministrativeRegion","Country"],"vertexAggSimValue":-1,"ccId":72,"lon":57.1203,"hashCc":4588433799808180049,"label":"oman","url":"http:\/\/rdf.freebase.com\/ns\/en.oman","ontology":"http:\/\/rdf.freebase.com\/","lat":22.7465}}
{"id":72,"data":{"typeIntern":["no_type"],"vertexAggSimValue":-1,"ccId":72,"lon":57,"hashCc":4588433799808180049,"label":"Oman","url":"http:\/\/data.nytimes.com\/59435910662161694721","ontology":"http:\/\/data.nytimes.com\/","lat":21}}
{"id":78,"data":{"typeIntern":["no_type"],"vertexAggSimValue":-1,"ccId":78,"lon":110.286,"hashCc":-6573624111701140751,"label":"Guilin (China)","url":"http:\/\/data.nytimes.com\/56427572758257624861","ontology":"http:\/\/data.nytimes.com\/","lat":25.2819}}
{"id":6585,"data":{"typeIntern":["Settlement"],"vertexAggSimValue":-1,"ccId":78,"lon":110.286,"hashCc":-6573624111701140751,"label":"Guilin","url":"http:\/\/sws.geonames.org\/1809498\/","ontology":"http:\/\/sws.geonames.org\/","lat":25.2819}}
{"id":79,"data":{"typeIntern":["Settlement","AdministrativeRegion"],"vertexAggSimValue":-1,"ccId":78,"lon":110.292,"hashCc":-6573624111701140751,"label":"guilin","url":"http:\/\/rdf.freebase.com\/ns\/en.guilin","ontology":"http:\/\/rdf.freebase.com\/","lat":25.2706}}
{"id":5272,"data":{"typeIntern":["Settlement"],"vertexAggSimValue":-1,"ccId":80,"lon":77,"hashCc":-5027012552026274872,"label":"Shimla","url":"http:\/\/dbpedia.org\/resource\/Shimla","ontology":"http:\/\/dbpedia.org\/","lat":31}}
{"id":80,"data":{"typeIntern":["no_type"],"vertexAggSimValue":-1,"ccId":80,"lon":77.1667,"hashCc":-5027012552026274872,"label":"Shimla (India)","url":"http:\/\/data.nytimes.com\/48076778462594223901","ontology":"http:\/\/data.nytimes.com\/","lat":31.1}}
{"id":2569,"data":{"typeIntern":["Settlement","AdministrativeRegion"],"vertexAggSimValue":-1,"ccId":80,"lon":77.1722,"hashCc":-5027012552026274872,"label":"shimla","url":"http:\/\/rdf.freebase.com\/ns\/en.shimla","ontology":"http:\/\/rdf.freebase.com\/","lat":31.1033}}
{"id":83,"data":{"typeIntern":["Settlement"],"vertexAggSimValue":-1,"ccId":82,"hashCc":-632705987399054534,"label":"Killington, Vermont","url":"http:\/\/dbpedia.org\/resource\/Killington,_Vermont","ontology":"http:\/\/dbpedia.org\/"}}
{"id":82,"data":{"typeIntern":["no_type"],"vertexAggSimValue":-1,"ccId":82,"lon":-72.7798,"hashCc":-632705987399054534,"label":"Killington (Vt)","url":"http:\/\/data.nytimes.com\/N10649359723257757601","ontology":"http:\/\/data.nytimes.com\/","lat":43.6776}}
{"id":7298,"data":{"typeIntern":["AdministrativeRegion","Country"],"vertexAggSimValue":-1,"ccId":90,"lon":168.706,"hashCc":-1416198782479472998,"label":"marshall islands","url":"http:\/\/rdf.freebase.com\/ns\/en.marshall_islands","ontology":"http:\/\/rdf.freebase.com\/","lat":7.29709}}
{"id":90,"data":{"typeIntern":["no_type"],"vertexAggSimValue":-1,"ccId":90,"lon":167,"hashCc":-1416198782479472998,"label":"Marshall Islands","url":"http:\/\/data.nytimes.com\/14474044480959249881","ontology":"http:\/\/data.nytimes.com\/","lat":10}}
{"id":91,"data":{"typeIntern":["Country"],"vertexAggSimValue":-1,"ccId":90,"lon":171.267,"hashCc":-1416198782479472998,"label":"Marshall Islands","url":"http:\/\/dbpedia.org\/resource\/Marshall_Islands","ontology":"http:\/\/dbpedia.org\/","lat":7.06667}}
{"id":2335,"data":{"typeIntern":["AdministrativeRegion"],"vertexAggSimValue":-1,"ccId":98,"lon":-70.2495,"hashCc":-8332598136172254811,"label":"Cape Cod","url":"http:\/\/sws.geonames.org\/4929772\/","ontology":"http:\/\/sws.geonames.org\/","lat":41.6668}}
{"id":98,"data":{"typeIntern":["no_type"],"vertexAggSimValue":-1,"ccId":98,"lon":-70.2495,"hashCc":-8332598136172254811,"label":"Cape Cod (Mass)","url":"http:\/\/data.nytimes.com\/N3461566772142894531","ontology":"http:\/\/data.nytimes.com\/","lat":41.6668}}
{"id":101,"data":{"typeIntern":["Settlement","AdministrativeRegion"],"vertexAggSimValue":-1,"ccId":100,"lon":39.6667,"hashCc":5864867099487176460,"label":"mombasa","url":"http:\/\/rdf.freebase.com\/ns\/en.mombasa","ontology":"http:\/\/rdf.freebase.com\/","lat":-4.05}}
{"id":100,"data":{"typeIntern":["no_type"],"vertexAggSimValue":-1,"ccId":100,"lon":39.6667,"hashCc":5864867099487176460,"label":"Mombasa (Kenya)","url":"http:\/\/data.nytimes.com\/48011128897650789271","ontology":"http:\/\/data.nytimes.com\/","lat":-4.05}}
{"id":102,"data":{"typeIntern":["no_type"],"vertexAggSimValue":-1,"ccId":102,"lon":127.5,"hashCc":-1789186492636211100,"label":"South Korea","url":"http:\/\/data.nytimes.com\/N87568537330517054011","ontology":"http:\/\/data.nytimes.com\/","lat":37}}
{"id":6925,"data":{"typeIntern":["Country"],"vertexAggSimValue":-1,"ccId":102,"lon":127,"hashCc":-1789186492636211100,"label":"South Korea","url":"http:\/\/dbpedia.org\/resource\/South_Korea","ontology":"http:\/\/dbpedia.org\/","lat":37.5833}}
{"id":4098,"data":{"typeIntern":["Country"],"vertexAggSimValue":-1,"ccId":102,"lon":127.5,"hashCc":-1789186492636211100,"label":"South Korea","url":"http:\/\/sws.geonames.org\/1835841\/","ontology":"http:\/\/sws.geonames.org\/","lat":37}}
{"id":110,"data":{"typeIntern":["no_type"],"vertexAggSimValue":-1,"ccId":110,"lon":16.3721,"hashCc":-4791238890262219697,"label":"Vienna (Austria)","url":"http:\/\/data.nytimes.com\/44617287257361177141","ontology":"http:\/\/data.nytimes.com\/","lat":48.2085}}
{"id":111,"data":{"typeIntern":["Settlement","AdministrativeRegion","Park"],"vertexAggSimValue":-1,"ccId":110,"lon":16.3726,"hashCc":-4791238890262219697,"label":"vienna","url":"http:\/\/rdf.freebase.com\/ns\/en.vienna","ontology":"http:\/\/rdf.freebase.com\/","lat":48.2088}}
{"id":4440,"data":{"typeIntern":["Settlement"],"vertexAggSimValue":-1,"ccId":110,"lon":16.3731,"hashCc":-4791238890262219697,"label":"Vienna","url":"http:\/\/dbpedia.org\/resource\/Vienna","ontology":"http:\/\/dbpedia.org\/","lat":48.2089}}
{"id":114,"data":{"typeIntern":["no_type"],"vertexAggSimValue":-1,"ccId":114,"lon":-99.2506,"hashCc":-8655175973986269555,"label":"Texas","url":"http:\/\/data.nytimes.com\/48672618484512849921","ontology":"http:\/\/data.nytimes.com\/","lat":31.2504}}
{"id":116,"data":{"typeIntern":["no_type"],"vertexAggSimValue":-1,"ccId":116,"lon":-122.418,"hashCc":-2894235073457227815,"label":"Sonoma Valley (Calif)","url":"http:\/\/data.nytimes.com\/N11421727514123393461","ontology":"http:\/\/data.nytimes.com\/","lat":38.2083}}
{"id":3437,"data":{"typeIntern":["no_type"],"vertexAggSimValue":-1,"ccId":116,"hashCc":-2894235073457227815,"label":"Sonoma Valley","url":"http:\/\/dbpedia.org\/resource\/Sonoma_Valley","ontology":"http:\/\/dbpedia.org\/"}}
{"id":120,"data":{"typeIntern":["no_type"],"vertexAggSimValue":-1,"ccId":120,"lon":109.5,"hashCc":-6272940305742584363,"label":"Hainan Island (China)","url":"http:\/\/data.nytimes.com\/86754248990043951061","ontology":"http:\/\/data.nytimes.com\/","lat":19}}
{"id":123,"data":{"typeIntern":["Settlement","AdministrativeRegion"],"vertexAggSimValue":-1,"ccId":122,"lon":-116.184,"hashCc":115250530442136414,"label":"lake louise alberta","url":"http:\/\/rdf.freebase.com\/ns\/en.lake_louise_alberta","ontology":"http:\/\/rdf.freebase.com\/","lat":51.4311}}
{"id":1181,"data":{"typeIntern":["BodyOfWater"],"vertexAggSimValue":-1,"ccId":122,"lon":-116.235,"hashCc":-3087757082602828061,"label":"Lake Louise","url":"http:\/\/sws.geonames.org\/6048484\/","ontology":"http:\/\/sws.geonames.org\/","lat":51.4167}}
{"id":122,"data":{"typeIntern":["no_type"],"vertexAggSimValue":-1,"ccId":122,"lon":-116.235,"hashCc":-3087757082602828061,"label":"Lake Louise (Canada)","url":"http:\/\/data.nytimes.com\/80670151773676881271","ontology":"http:\/\/data.nytimes.com\/","lat":51.4167}}
{"id":124,"data":{"typeIntern":["no_type"],"vertexAggSimValue":-1,"ccId":124,"lon":24,"hashCc":-3399356459418175852,"label":"Lithuania","url":"http:\/\/data.nytimes.com\/29257591924808600541","ontology":"http:\/\/data.nytimes.com\/","lat":56}}
{"id":125,"data":{"typeIntern":["Country"],"vertexAggSimValue":-1,"ccId":124,"lon":25.3167,"hashCc":-3399356459418175852,"label":"Lithuania","url":"http:\/\/dbpedia.org\/resource\/Lithuania","ontology":"http:\/\/dbpedia.org\/","lat":54.6833}}
{"id":7047,"data":{"typeIntern":["Settlement","AdministrativeRegion"],"vertexAggSimValue":-1,"ccId":130,"lon":-79.125,"hashCc":-4314132266571726917,"label":"pawleys island","url":"http:\/\/rdf.freebase.com\/ns\/en.pawleys_island","ontology":"http:\/\/rdf.freebase.com\/","lat":33.4292}}
{"id":5563,"data":{"typeIntern":["Island"],"vertexAggSimValue":-1,"ccId":130,"lon":-79.1217,"hashCc":-6494487607436811636,"label":"Pawleys Island","url":"http:\/\/sws.geonames.org\/4590648\/","ontology":"http:\/\/sws.geonames.org\/","lat":33.4296}}
{"id":130,"data":{"typeIntern":["no_type"],"vertexAggSimValue":-1,"ccId":130,"lon":-79.1217,"hashCc":-6494487607436811636,"label":"Pawleys Island (SC)","url":"http:\/\/data.nytimes.com\/52528364921241729881","ontology":"http:\/\/data.nytimes.com\/","lat":33.4296}}
{"id":132,"data":{"typeIntern":["no_type"],"vertexAggSimValue":-1,"ccId":132,"lon":-3,"hashCc":-1189155981926598081,"label":"Brittany (France)","url":"http:\/\/data.nytimes.com\/N71963633351414990151","ontology":"http:\/\/data.nytimes.com\/","lat":48}}
{"id":6818,"data":{"typeIntern":["AdministrativeRegion"],"vertexAggSimValue":-1,"ccId":132,"lon":-2.93264,"hashCc":-1189155981926598081,"label":"brittany","url":"http:\/\/rdf.freebase.com\/ns\/en.brittany","ontology":"http:\/\/rdf.freebase.com\/","lat":48.202}}
{"id":6481,"data":{"typeIntern":["AdministrativeRegion"],"vertexAggSimValue":-1,"ccId":132,"lon":-3,"hashCc":-1189155981926598081,"label":"Bretagne","url":"http:\/\/sws.geonames.org\/3030293\/","ontology":"http:\/\/sws.geonames.org\/","lat":48}}
{"id":133,"data":{"typeIntern":["Settlement"],"vertexAggSimValue":-1,"ccId":132,"lon":-3,"hashCc":-1189155981926598081,"label":"Brittany","url":"http:\/\/dbpedia.org\/resource\/Brittany","ontology":"http:\/\/dbpedia.org\/","lat":48}}
{"id":134,"data":{"typeIntern":["no_type"],"vertexAggSimValue":-1,"ccId":134,"lon":-59,"hashCc":7228423894193191215,"label":"Guyana","url":"http:\/\/data.nytimes.com\/66209907307262812161","ontology":"http:\/\/data.nytimes.com\/","lat":5}}
{"id":5607,"data":{"typeIntern":["Park"],"vertexAggSimValue":-1,"ccId":136,"lon":3.06667,"hashCc":5798636892210629554,"label":"Costa Brava","url":"http:\/\/sws.geonames.org\/3127668\/","ontology":"http:\/\/sws.geonames.org\/","lat":41.75}}
{"id":136,"data":{"typeIntern":["no_type"],"vertexAggSimValue":-1,"ccId":136,"lon":3.06667,"hashCc":5798636892210629554,"label":"Costa Brava (Spain)","url":"http:\/\/data.nytimes.com\/N5574108885743566131","ontology":"http:\/\/data.nytimes.com\/","lat":41.75}}
{"id":140,"data":{"typeIntern":["no_type"],"vertexAggSimValue":-1,"ccId":140,"lon":82.2,"hashCc":8549790137392434348,"label":"Ayodhya (India)","url":"http:\/\/data.nytimes.com\/48031690954630447871","ontology":"http:\/\/data.nytimes.com\/","lat":26.8}}
{"id":5863,"data":{"typeIntern":["Settlement"],"vertexAggSimValue":-1,"ccId":144,"lon":39.1979,"hashCc":-85634688622734159,"label":"Zanzibar","url":"http:\/\/sws.geonames.org\/148730\/","ontology":"http:\/\/sws.geonames.org\/","lat":-6.16394}}
{"id":2198,"data":{"typeIntern":["Country"],"vertexAggSimValue":-1,"ccId":144,"lon":39.3167,"hashCc":-85634688622734159,"label":"Zanzibar","url":"http:\/\/dbpedia.org\/resource\/Zanzibar","ontology":"http:\/\/dbpedia.org\/","lat":-6.13333}}
{"id":144,"data":{"typeIntern":["no_type"],"vertexAggSimValue":-1,"ccId":144,"lon":39.1979,"hashCc":-85634688622734159,"label":"Zanzibar (Tanzania)","url":"http:\/\/data.nytimes.com\/N33991161654321043011","ontology":"http:\/\/data.nytimes.com\/","lat":-6.16394}}
{"id":148,"data":{"typeIntern":["no_type"],"vertexAggSimValue":-1,"ccId":148,"lon":-106.081,"hashCc":7370240952024367405,"label":"Espanola (NM)","url":"http:\/\/data.nytimes.com\/N82527443133559682371","ontology":"http:\/\/data.nytimes.com\/","lat":35.9911}}
{"id":2174,"data":{"typeIntern":["Settlement","AdministrativeRegion"],"vertexAggSimValue":-1,"ccId":148,"lon":-106.08,"hashCc":7370240952024367405,"label":"espanola","url":"http:\/\/rdf.freebase.com\/ns\/en.espanola","ontology":"http:\/\/rdf.freebase.com\/","lat":35.9911}}
{"id":150,"data":{"typeIntern":["no_type"],"vertexAggSimValue":-1,"ccId":150,"lon":-91.9667,"hashCc":4473537342959430729,"label":"Palenque (Mexico)","url":"http:\/\/data.nytimes.com\/52346077855795654231","ontology":"http:\/\/data.nytimes.com\/","lat":17.5167}}
{"id":5762,"data":{"typeIntern":["no_type"],"vertexAggSimValue":-1,"ccId":150,"lon":-92.0463,"hashCc":4473537342959430729,"label":"Palenque","url":"http:\/\/dbpedia.org\/resource\/Palenque","ontology":"http:\/\/dbpedia.org\/","lat":17.484}}
{"id":153,"data":{"typeIntern":["Settlement"],"vertexAggSimValue":-1,"ccId":152,"hashCc":2828763158079081169,"label":"Farmingdale, New York","url":"http:\/\/dbpedia.org\/resource\/Farmingdale,_New_York","ontology":"http:\/\/dbpedia.org\/"}}
{"id":152,"data":{"typeIntern":["no_type"],"vertexAggSimValue":-1,"ccId":152,"lon":-73.4454,"hashCc":2828763158079081169,"label":"Farmingdale (NY)","url":"http:\/\/data.nytimes.com\/15042322342249359121","ontology":"http:\/\/data.nytimes.com\/","lat":40.7326}}
{"id":4826,"data":{"typeIntern":["Country"],"vertexAggSimValue":-1,"ccId":154,"lon":-169.87,"hashCc":5031088604907365272,"label":"Niue","url":"http:\/\/dbpedia.org\/resource\/Niue","ontology":"http:\/\/dbpedia.org\/","lat":-19.0633}}
{"id":155,"data":{"typeIntern":["Country"],"vertexAggSimValue":-1,"ccId":154,"lon":-169.867,"hashCc":5031088604907365272,"label":"Niue","url":"http:\/\/sws.geonames.org\/4036232\/","ontology":"http:\/\/sws.geonames.org\/","lat":-19.0333}}
{"id":154,"data":{"typeIntern":["no_type"],"vertexAggSimValue":-1,"ccId":154,"lon":-169.867,"hashCc":5031088604907365272,"label":"Niue","url":"http:\/\/data.nytimes.com\/67165980370256527361","ontology":"http:\/\/data.nytimes.com\/","lat":-19.0333}}
{"id":157,"data":{"typeIntern":["Settlement","AdministrativeRegion"],"vertexAggSimValue":-1,"ccId":156,"lon":-88.8,"hashCc":1538231637207433636,"label":"punta gorda belize","url":"http:\/\/rdf.freebase.com\/ns\/en.punta_gorda_belize","ontology":"http:\/\/rdf.freebase.com\/","lat":16.1}}
{"id":2136,"data":{"typeIntern":["Settlement"],"vertexAggSimValue":-1,"ccId":156,"lon":-88.8,"hashCc":1538231637207433636,"label":"Punta Gorda","url":"http:\/\/sws.geonames.org\/3581398\/","ontology":"http:\/\/sws.geonames.org\/","lat":16.1}}
{"id":156,"data":{"typeIntern":["no_type"],"vertexAggSimValue":-1,"ccId":156,"lon":-88.8,"hashCc":1538231637207433636,"label":"Punta Gorda (Belize)","url":"http:\/\/data.nytimes.com\/84247597273942375711","ontology":"http:\/\/data.nytimes.com\/","lat":16.1}}
{"id":7405,"data":{"typeIntern":["Settlement"],"vertexAggSimValue":-1,"ccId":156,"hashCc":1538231637207433636,"label":"Punta Gorda, Belize","url":"http:\/\/dbpedia.org\/resource\/Punta_Gorda,_Belize","ontology":"http:\/\/dbpedia.org\/"}}
{"id":6331,"data":{"typeIntern":["AdministrativeRegion","Country"],"vertexAggSimValue":-1,"ccId":164,"lon":17.2146,"hashCc":-549425326701635025,"label":"namibia","url":"http:\/\/rdf.freebase.com\/ns\/en.namibia","ontology":"http:\/\/rdf.freebase.com\/","lat":-21.7391}}
{"id":164,"data":{"typeIntern":["no_type"],"vertexAggSimValue":-1,"ccId":164,"lon":17,"hashCc":-549425326701635025,"label":"Namibia","url":"http:\/\/data.nytimes.com\/66220959843659172161","ontology":"http:\/\/data.nytimes.com\/","lat":-22}}
{"id":3639,"data":{"typeIntern":["Country"],"vertexAggSimValue":-1,"ccId":164,"lon":17.0861,"hashCc":-549425326701635025,"label":"Namibia","url":"http:\/\/dbpedia.org\/resource\/Namibia","ontology":"http:\/\/dbpedia.org\/","lat":-22.57}}
{"id":165,"data":{"typeIntern":["Country"],"vertexAggSimValue":-1,"ccId":164,"lon":17,"hashCc":-549425326701635025,"label":"Namibia","url":"http:\/\/sws.geonames.org\/3355338\/","ontology":"http:\/\/sws.geonames.org\/","lat":-22}}
